,City,Cloudiness,Country,Date,Humidity,Lat,Lng,Max Temp,Wind Speed
0,Poli,8,CM,1544311980,74,8.48,13.24,62.99,2.39
1,Huaihua,100,CN,1544311981,93,27.56,109.96,27.13,7.09
2,Singapore,75,MY,1544310000,88,1.29,103.85,80.6,5.75
3,Mataura,92,NZ,1544311984,89,-46.19,168.86,65.24,14.36
4,Ushuaia,75,AR,1544310000,57,-54.81,-68.31,48.2,25.28
5,Butaritari,0,KI,1544311126,100,3.07,172.79,85.58,5.19
6,Port-Gentil,20,GA,1544310000,88,-0.72,8.78,78.8,1.95
7,Sur,0,OM,1544311685,100,22.57,59.53,74.83,5.08
8,Vaini,48,IN,1544311990,91,15.34,74.49,67.13,1.83
9,Sarangani,24,PH,1544311992,96,5.4,125.46,83.74,12.68
10,Vostok,32,RU,1544311993,63,46.45,135.83,-8.92,5.86
11,Luanda,75,AO,1544306400,88,-8.83,13.24,77.0,3.36
12,Qaanaaq,48,GL,1544311996,100,77.48,-69.36,-3.43,8.99
13,Hobart,75,AU,1544310000,62,-42.88,147.33,59.0,5.82
14,Busselton,0,AU,1544311999,100,-33.64,115.35,63.35,16.26
15,Lorengau,76,PG,1544311506,99,-2.02,147.27,84.59,9.44
16,New Norfolk,75,AU,1544310000,62,-42.78,147.06,59.0,5.82
17,Sao Joao da Barra,75,BR,1544306400,88,-21.64,-41.05,68.0,11.41
18,Fort Nelson,75,CA,1544310000,85,58.81,-122.69,12.2,2.28
19,Mingyue,0,CN,1544312006,39,43.11,128.91,1.03,9.22
20,Iracoubo,48,GF,1544311597,78,5.48,-53.21,77.44,5.19
21,Torbay,90,CA,1544310000,100,47.66,-52.73,28.4,16.11
22,Henties Bay,0,NA,1544312010,100,-22.12,14.28,58.49,7.09
23,Punta Arenas,75,CL,1544310000,54,-53.16,-70.91,53.6,20.8
24,Cockburn Town,56,TC,1544311816,100,21.46,-71.14,79.96,18.05
25,Naze,40,NG,1544306400,83,5.43,7.07,80.6,2.24
26,Voyvozh,68,RU,1544312015,84,62.89,54.96,17.18,4.97
27,Norman Wells,75,CA,1544310000,92,65.28,-126.83,8.6,2.24
28,Atuona,20,PF,1544311760,100,-9.8,-139.03,79.55,17.16
29,Kununurra,0,AU,1544310000,79,-15.77,128.74,86.0,6.93
30,Provideniya,24,RU,1544312021,100,64.42,-173.23,19.93,18.72
31,Kruisfontein,8,ZA,1544311753,91,-34.0,24.73,59.66,8.88
32,Lasa,40,CY,1544310000,87,34.92,32.53,53.6,6.93
33,Taltal,24,CL,1544312026,67,-25.41,-70.49,61.33,2.17
34,Makakilo City,75,US,1544310060,88,21.35,-158.09,78.08,11.41
35,Hofn,0,IS,1544311438,100,64.25,-15.21,32.93,16.15
36,Ixtapa,5,MX,1544308980,74,20.71,-105.21,82.4,5.82
37,Aklavik,75,CA,1544310000,77,68.22,-135.01,5.0,10.29
38,Hermanus,48,ZA,1544312039,100,-34.42,19.24,53.0,3.06
39,Victoria,75,BN,1544310000,94,5.28,115.24,80.6,2.24
40,Flin Flon,75,CA,1544310000,78,54.77,-101.88,14.0,5.82
41,Ende,8,ID,1544312043,100,-8.84,121.65,83.29,4.63
42,Beneditinos,75,BR,1544306400,70,-5.46,-42.36,86.0,2.24
43,Rikitea,88,PF,1544312046,98,-23.12,-134.97,78.61,14.81
44,Rorvik,92,NO,1544312048,100,64.86,11.24,33.43,11.01
45,Saint-Philippe,90,CA,1544310900,85,45.36,-73.48,15.8,6.93
46,Edirne,24,TR,1544312050,84,41.68,26.56,35.72,4.97
47,Oktyabrskoye,0,RU,1544310000,84,56.73,85.44,3.2,6.71
48,Tasiilaq,20,GL,1544309400,52,65.61,-37.64,19.4,2.24
49,Lakes Entrance,88,AU,1544311842,95,-37.88,147.99,66.28,1.95
50,Lebu,32,ET,1544312057,89,8.96,38.73,42.65,2.84
51,Port Alfred,80,ZA,1544312059,97,-33.59,26.89,65.33,9.33
52,Pangnirtung,12,CA,1544311902,70,66.15,-65.72,-15.85,1.95
53,Baykit,44,RU,1544312061,61,61.68,96.39,-21.79,2.84
54,Kigoma,56,TZ,1544311724,100,-4.88,29.64,71.68,3.96
55,East London,92,ZA,1544311336,100,-33.02,27.91,66.91,10.45
56,Coihaique,75,CL,1544310000,55,-45.58,-72.07,62.6,8.05
57,Mogadishu,32,SO,1544311600,100,2.04,45.34,80.72,18.5
58,Albany,90,US,1544311020,62,42.65,-73.75,28.04,5.82
59,Ancud,90,CL,1544310000,82,-41.87,-73.83,57.2,16.11
60,Rome,0,IT,1544311200,75,41.89,12.48,46.4,4.7
61,Antofagasta,20,CL,1544310000,72,-23.65,-70.4,64.4,11.41
62,Kloulklubed,75,PW,1544309400,83,7.04,134.26,82.4,9.17
63,Biak,0,ID,1544312075,90,-0.91,122.88,82.97,2.17
64,Thohoyandou,80,ZA,1544312076,98,-22.97,30.46,68.3,2.95
65,Bredasdorp,80,ZA,1544310000,77,-34.53,20.04,60.8,4.7
66,Port Hedland,12,AU,1544310000,43,-20.31,118.58,89.6,4.63
67,Georgetown,40,GY,1544310000,83,6.8,-58.16,80.6,11.41
68,Salalah,0,OM,1544309400,49,17.01,54.1,71.6,3.36
69,Castro,90,CL,1544310000,82,-42.48,-73.76,57.2,16.11
70,Naberera,76,TZ,1544312085,93,-4.2,36.93,64.16,1.72
71,Bethanien,0,NA,1544312087,48,-26.5,17.16,56.11,9.44
72,Buraydah,0,SA,1544306400,87,26.33,43.97,59.0,4.7
73,Bluff,100,AU,1544312089,75,-23.58,149.07,71.41,14.7
74,Nkowakowa,0,ZA,1544310000,82,-23.89,30.29,59.0,12.75
75,Aasiaat,0,GL,1544312092,100,68.71,-52.87,17.59,5.08
76,Dhidhdhoo,8,MV,1544311802,100,6.88,73.1,83.51,3.51
77,Mercedes,44,UY,1544311566,40,-33.25,-58.03,71.36,9.78
78,Immokalee,75,US,1544310900,69,26.42,-81.42,78.08,6.93
79,Hithadhoo,56,MV,1544312097,100,-0.6,73.08,83.33,9.22
80,Banjar,68,ID,1544312098,98,-7.37,108.54,75.59,2.51
81,Port Lincoln,64,AU,1544312100,88,-34.72,135.86,64.93,13.24
82,Puerto Ayora,0,EC,1544310000,57,-0.74,-90.35,78.8,19.46
83,Port Blair,80,IN,1544311906,100,11.67,92.75,80.45,12.01
84,Namatanai,68,PG,1544312103,96,-3.66,152.44,85.4,4.41
85,Yellowknife,75,CA,1544310000,85,62.45,-114.38,14.0,10.29
86,Port-Cartier,5,CA,1544310000,60,50.03,-66.88,5.0,4.7
87,Alice Springs,0,AU,1544310000,20,-23.7,133.88,93.2,9.17
88,Hamilton,75,BM,1544309700,68,32.3,-64.78,66.2,9.17
89,Dongsheng,92,CN,1544311697,81,29.72,112.52,30.68,6.98
90,Ponta do Sol,0,BR,1544312112,66,-20.63,-46.0,66.14,12.12
91,Guisguis,48,PH,1544312113,100,13.86,121.5,79.78,17.05
92,Meulaboh,8,ID,1544311599,100,4.14,96.13,78.16,3.18
93,Shingu,75,JP,1544310000,56,33.72,135.99,42.8,18.34
94,Kapaa,90,US,1544309760,59,22.08,-159.32,80.06,23.04
95,Avarua,75,CK,1544310000,78,-21.21,-159.78,82.4,10.29
96,Rio Gallegos,20,AR,1544310000,20,-51.62,-69.22,62.6,27.51
97,Trofors,88,NO,1544311200,64,65.54,13.39,35.6,11.41
98,Perieti,56,RO,1544310000,100,44.4,24.55,33.8,8.05
99,Upata,80,VE,1544311553,80,8.02,-62.41,74.42,7.2
100,Hopkinsville,1,US,1544310900,66,36.87,-87.49,33.98,10.22
101,Vila do Maio,20,CV,1544310000,69,15.13,-23.22,75.2,9.17
102,Necochea,8,AR,1544312128,48,-38.55,-58.74,74.78,16.26
103,Chuy,0,UY,1544312129,57,-33.69,-53.46,65.33,14.58
104,Bambanglipuro,92,ID,1544312131,100,-7.95,110.28,73.93,3.96
105,Bodrum,75,TR,1544311200,86,37.04,27.43,51.8,4.7
106,Thompson,90,CA,1544310000,85,55.74,-97.86,12.2,6.93
107,Leningradskiy,36,RU,1544312135,95,69.38,178.42,0.58,11.56
108,Boyolangu,48,ID,1544311846,98,-8.09,111.9,74.11,4.18
109,Khatanga,36,RU,1544312137,52,71.98,102.47,-9.73,2.73
110,Oriximina,88,BR,1544312139,90,-1.77,-55.87,78.38,2.06
111,Blythe,0,US,1544312141,44,33.61,-114.59,63.94,3.06
112,Haines Junction,76,CA,1544312142,77,60.75,-137.51,32.53,7.65
113,Kodiak,1,US,1544309700,66,39.95,-94.76,32.0,9.17
114,Belyy Yar,40,RU,1544310000,83,53.6,91.39,-7.61,4.47
115,Dingle,44,PH,1544311740,86,11.0,122.67,78.79,11.68
116,Jiazi,90,CN,1544310000,94,19.61,110.49,68.0,13.42
117,Nikolskoye,90,RU,1544310000,86,59.7,30.79,28.4,15.66
118,Husavik,0,CA,1544312150,72,50.56,-96.99,3.5,8.99
119,Half Moon Bay,1,US,1544310000,52,37.46,-122.43,64.4,3.36
120,Mount Gambier,0,AU,1544310000,63,-37.83,140.78,66.2,13.87
121,Vila Velha,40,BR,1544306400,78,-3.71,-38.6,82.4,9.17
122,Angoche,8,MZ,1544312155,97,-16.23,39.91,83.15,14.7
123,Wanning,75,AT,1544311200,65,48.64,13.53,44.6,3.36
124,Havelock,90,US,1544309760,82,34.88,-76.9,46.04,4.7
125,Clyde River,1,CA,1544306400,74,70.47,-68.59,-22.01,4.7
126,Vardo,1,US,1544310900,53,39.62,-77.74,32.0,3.85
127,Vila Franca do Campo,20,PT,1544310000,55,37.72,-25.43,66.2,11.41
128,Tuktoyaktuk,90,CA,1544310000,92,69.44,-133.03,6.8,18.34
129,Lodwar,44,KE,1544312165,73,3.12,35.6,74.33,3.51
130,Rayevskiy,64,RU,1544312167,87,54.07,54.94,16.37,3.85
131,Mar del Plata,8,AR,1544312168,29,-46.43,-67.52,79.55,15.82
132,Cape Town,20,ZA,1544310000,72,-33.93,18.42,60.8,9.17
133,Cabo San Lucas,40,MX,1544309040,57,22.89,-109.91,75.2,3.36
134,Victor Harbor,0,AU,1544310000,72,-35.55,138.62,68.0,6.93
135,Maragogi,24,BR,1544312173,91,-9.01,-35.22,78.11,9.1
136,Marsa Matruh,0,EG,1544310000,76,31.35,27.25,53.6,5.82
137,Minsk,90,BY,1544310420,100,53.9,27.56,33.8,4.47
138,Shimanovsk,12,RU,1544312178,36,52.0,127.67,-24.58,0.6
139,Villaviciosa,0,ES,1544310000,72,43.48,-5.43,59.0,6.93
140,Gorontalo,36,ID,1544311667,87,0.54,123.06,78.29,1.83
141,Coueron,90,FR,1544310000,82,47.22,-1.72,55.4,19.46
142,Valentin Gomez Farias,20,MX,1544308980,20,24.05,-104.7,68.0,12.75
143,Langholm,32,GB,1544309400,100,55.15,-3.0,41.0,17.22
144,Turinsk,100,RU,1544312186,72,58.04,63.7,14.93,3.85
145,Altay,0,CN,1544312187,36,47.83,88.13,-28.36,1.61
146,Ribeira Grande,64,PT,1544312189,99,38.52,-28.7,64.61,15.7
147,Faya,0,SA,1544306400,76,18.39,42.45,57.2,6.93
148,Kutum,0,SD,1544312191,61,14.2,24.66,47.42,1.28
149,Hasaki,75,JP,1544310000,60,35.73,140.83,42.8,11.41
150,Khandbari,44,NP,1544312194,78,27.38,87.21,27.08,0.38
151,Bamako,0,ML,1544310000,31,12.65,-8.0,73.4,6.93
152,Biltine,0,TD,1544312196,65,14.53,20.93,58.04,2.62
153,Barrow,20,AR,1544312198,31,-38.31,-60.23,81.04,18.72
154,Mayumba,88,GA,1544312199,100,-3.44,10.65,75.91,5.08
155,Port Shepstone,92,ZA,1544312200,100,-30.74,30.45,68.71,11.45
156,Vasterhaninge,92,SE,1544309400,93,59.12,18.1,41.0,6.93
157,Doha,40,QA,1544309760,67,25.29,51.53,69.8,5.82
158,Virtsu,90,EE,1544311440,100,58.57,23.51,39.2,24.16
159,Palmas,40,BR,1544306400,62,-10.18,-48.33,84.2,3.06
160,Muisne,0,EC,1544310000,74,0.61,-80.02,82.4,4.7
161,Cherskiy,48,RU,1544312210,75,68.75,161.3,-24.76,3.18
162,Na Wa,75,TH,1544310000,69,17.49,104.1,75.2,8.05
163,Palembang,20,ID,1544310000,94,-2.99,104.76,75.2,3.36
164,Nabire,92,ID,1544311756,95,-3.36,135.5,72.94,1.61
165,Uribia,0,CO,1544312215,63,11.71,-72.27,81.26,17.16
166,Chokurdakh,32,RU,1544312216,63,70.62,147.9,-33.94,3.06
167,Durango,90,US,1544311260,88,37.28,-107.88,41.0,8.05
168,Jamestown,64,AU,1544312219,38,-33.21,138.6,86.57,4.63
169,Kavieng,64,PG,1544312220,100,-2.57,150.8,83.78,6.31
170,Sitka,0,US,1544312222,66,37.17,-99.65,28.97,3.62
171,Quang Ngai,92,VN,1544311923,98,15.12,108.8,68.26,2.51
172,Poum,88,MK,1544311748,96,41.28,20.71,30.91,1.16
173,Bethel,90,US,1544310300,95,60.79,-161.76,24.98,10.29
174,Danilov,90,RU,1544310000,85,58.19,40.17,23.0,4.47
175,Douala,40,CM,1544310000,100,4.04,9.71,78.8,2.24
176,Menemen,0,TR,1544311200,86,38.6,27.08,48.2,3.36
177,Anadyr,40,RU,1544310000,75,64.73,177.51,-13.01,17.9
178,Cidreira,0,BR,1544312233,68,-30.17,-50.22,64.03,13.02
179,Pochutla,5,MX,1544308920,58,15.74,-96.47,86.0,5.64
180,Fayaoue,0,NC,1544312235,100,-20.65,166.53,78.11,24.54
181,Eyl,44,SO,1544312237,100,7.98,49.82,75.73,13.24
182,Tura,0,IN,1544311788,85,25.52,90.21,52.1,2.39
183,Arman,20,RU,1544312239,59,59.7,150.17,-2.71,8.21
184,Chuzhou,64,CN,1544312241,81,32.25,118.33,27.94,7.54
185,Sergeyevka,0,KZ,1544312242,53,53.88,67.42,-10.18,5.75
186,Vytegra,8,RU,1544312243,85,61.01,36.45,18.08,19.51
187,Grindavik,90,IS,1544310000,74,63.84,-22.43,33.8,2.24
188,Neiba,20,DO,1544310000,65,18.49,-71.42,80.6,6.93
189,Tucumcari,1,US,1544309580,41,35.17,-103.73,46.04,6.93
190,Atar,0,MR,1544312249,33,20.52,-13.05,59.44,7.54
191,Freeport,75,BS,1544310000,69,26.54,-78.7,75.2,3.36
192,Airai,32,TL,1544312252,90,-8.93,125.41,77.26,1.16
193,Touros,80,BR,1544312253,90,-5.2,-35.46,79.73,6.31
194,Yunyang,76,CN,1544312255,75,32.84,110.81,24.2,2.73
195,Faanui,32,PF,1544312256,100,-16.48,-151.75,78.92,13.8
196,Noumea,20,NC,1544310000,42,-22.28,166.46,82.4,9.17
197,Tigre,0,AR,1544310000,53,-34.42,-58.58,73.4,4.7
198,Grants,0,US,1544312260,80,35.15,-107.85,32.98,5.41
199,Vao,92,EE,1544311869,95,59.1,26.19,37.84,11.23
200,Eenhana,0,NA,1544310000,23,-17.48,16.34,77.0,3.36
201,Tilichiki,8,RU,1544312264,45,60.47,166.1,-28.68,3.4
202,Sharjah,0,AE,1544310000,68,25.36,55.39,68.0,8.05
203,Saskylakh,44,RU,1544312267,70,71.97,114.09,-10.05,3.51
204,Bria,36,CF,1544312268,69,6.54,21.99,65.6,3.18
205,Senanga,24,ZM,1544312269,71,-16.1,23.3,75.05,8.99
206,Ust-Nera,20,RU,1544312271,62,64.57,143.24,-36.15,2.06
207,Saldanha,0,PT,1544312272,83,41.42,-6.55,29.96,2.62
208,Arraial do Cabo,56,BR,1544312273,94,-22.97,-42.02,71.36,8.55
209,Nome,90,US,1544310900,87,30.04,-94.42,50.0,14.99
210,Bambous Virieux,40,MU,1544310000,88,-20.34,57.76,77.0,6.93
211,Ambilobe,0,MG,1544312277,89,-13.19,49.05,69.16,4.97
212,Ketchikan,90,US,1544309580,63,55.34,-131.65,46.94,28.86
213,Virginia Beach,90,US,1544311200,59,36.85,-75.98,41.0,5.82
214,Flinders,0,AU,1544310000,61,-34.58,150.85,77.0,8.05
215,Luganville,88,VU,1544312282,100,-15.51,167.18,80.54,17.72
216,Kirakira,12,SB,1544311629,100,-10.46,161.92,85.18,5.53
217,Kiruna,80,SE,1544311200,100,67.86,20.23,15.8,2.24
218,Mount Isa,0,AU,1544310000,27,-20.73,139.49,89.6,12.75
219,Alofi,92,NU,1544306400,88,-19.06,-169.92,80.6,11.41
220,Seymchan,44,RU,1544312289,46,62.93,152.39,-29.35,2.62
221,Wairoa,24,NZ,1544312290,71,-39.04,177.43,71.86,4.41
222,Hami,8,CN,1544311792,45,42.84,93.51,-8.07,1.28
223,Saint George,90,GR,1544309400,87,39.45,22.34,42.8,3.51
224,Mayo,90,CA,1544310000,79,63.59,-135.9,28.4,10.29
225,Chimbote,36,PE,1544312296,86,-9.08,-78.59,67.09,7.99
226,Plettenberg Bay,8,ZA,1544312297,100,-34.05,23.37,61.24,8.99
227,Aksu,0,KZ,1544310000,70,52.04,76.93,-0.41,11.18
228,Port Elizabeth,1,US,1544309760,74,39.31,-74.98,33.98,6.76
229,Hambantota,92,LK,1544312301,100,6.12,81.12,73.61,6.98
230,Itaituba,44,BR,1544312302,96,-4.26,-55.99,75.73,2.84
231,Zheleznodorozhnyy,90,RU,1544310000,85,55.75,38.0,24.8,8.95
232,Tranas,80,SE,1544311200,93,58.04,14.98,42.8,10.29
233,Mehamn,8,NO,1544312306,100,71.03,27.85,8.9,5.53
234,Hilo,20,US,1544309580,58,19.71,-155.08,78.98,10.29
235,Nyimba,80,ZM,1544312309,91,-14.56,30.81,69.83,7.99
236,Esperance,20,TT,1544310000,78,10.24,-61.45,78.8,3.36
237,Champerico,5,MX,1544309160,40,16.38,-93.6,87.8,1.95
238,Guerrero Negro,0,MX,1544312313,63,27.97,-114.04,69.74,8.55
239,Keti Bandar,0,PK,1544312314,99,24.14,67.45,75.95,10.0
240,Cervo,0,BR,1544312316,71,-22.19,-46.24,58.18,5.41
241,Vilyuysk,24,RU,1544312317,62,63.75,121.63,-21.3,4.41
242,Massillon,75,US,1544310900,73,40.8,-81.52,23.0,4.97
243,Muros,90,ES,1544310000,93,42.77,-9.06,50.0,4.7
244,Krasnoarmeysk,90,RU,1544310000,85,56.12,38.15,24.8,11.18
245,Carutapera,80,BR,1544312322,86,-1.2,-46.02,79.91,6.08
246,Coldwater,1,US,1544312100,68,41.94,-85.0,27.5,2.84
247,Upernavik,56,GL,1544312325,100,72.79,-56.15,8.81,10.33
248,Tiksi,12,RU,1544312326,77,71.64,128.87,-37.99,3.06
249,Bhum,0,IN,1544312328,84,18.47,75.67,60.34,2.95
250,Chuchkovo,92,RU,1544312329,92,54.27,41.45,19.93,6.2
251,Sisimiut,0,GL,1544312330,100,66.94,-53.67,-10.5,2.62
252,Te Anau,80,NZ,1544312331,70,-45.41,167.72,63.58,9.66
253,Centralia,1,US,1544310900,63,39.21,-92.14,30.92,5.82
254,Eureka,90,US,1544309700,60,40.8,-124.16,64.04,8.05
255,Tallahassee,90,US,1544310900,76,30.44,-84.28,60.98,8.05
256,Grand Gaube,40,MU,1544310000,88,-20.01,57.66,77.0,6.93
257,Kuusamo,90,FI,1544311200,86,65.96,29.19,26.6,11.41
258,Narsaq,36,GL,1544312340,54,60.91,-46.05,2.29,2.17
259,Labuhan,68,ID,1544311829,94,-2.54,115.51,75.41,0.94
260,Baixo Guandu,44,BR,1544312343,87,-19.51,-41.02,63.89,11.9
261,Pitimbu,20,BR,1544306400,78,-7.47,-34.81,80.6,6.93
262,Bara,0,NG,1544312345,39,10.41,10.6,68.39,8.66
263,Avera,90,US,1544310900,96,33.19,-82.53,44.6,13.87
264,Isangel,0,VU,1544312348,100,-19.55,169.27,77.98,23.53
265,Porto Novo,75,BR,1544306400,72,-23.68,-45.44,62.6,11.41
266,San Patricio,0,PY,1544312351,74,-26.98,-56.83,64.34,3.29
267,Megion,0,RU,1544310000,91,61.04,76.11,3.2,4.47
268,Bukama,92,CD,1544312353,100,-9.2,25.85,68.98,4.52
269,Yatou,40,CM,1544310000,100,3.63,9.81,78.8,2.24
270,Verkh-Usugli,0,RU,1544312356,58,52.7,115.17,-34.53,2.51
271,Bathsheba,40,BB,1544310000,78,13.22,-59.52,78.8,18.34
272,Whitehaven,90,US,1544309700,95,35.03,-90.03,37.4,17.22
273,Mayor Pablo Lagerenza,0,PY,1544312360,59,-19.93,-60.77,78.61,7.09
274,Hailar,0,CN,1544312361,45,49.2,119.7,-29.35,2.95
275,Broken Hill,0,AU,1544310000,25,-31.97,141.45,87.8,9.17
276,Kaminoyama,75,JP,1544310000,100,38.13,140.3,28.4,4.7
277,Pacific Grove,1,US,1544309700,54,36.62,-121.92,68.0,3.36
278,Lamu,24,ID,1544312367,98,0.57,122.3,77.48,2.39
279,Kanalion,40,GR,1544309400,82,39.61,19.89,57.2,4.7
280,Pevek,8,RU,1544312369,100,69.7,170.27,-6.58,9.89
281,Petropavlovsk-Kamchatskiy,12,RU,1544310000,56,53.05,158.65,12.2,13.42
282,Dikson,88,RU,1544312372,99,73.51,80.55,14.93,29.46
283,Toora-Khem,48,RU,1544312373,71,52.47,96.11,-18.87,1.16
284,Caravelas,92,BR,1544312375,100,-17.73,-39.27,74.87,21.85
285,Lavras,8,BR,1544312376,67,-21.24,-45.0,61.96,14.92
286,Lazaro Cardenas,75,MX,1544309820,50,28.39,-105.62,55.4,12.75
287,La Ronge,75,CA,1544310000,85,55.1,-105.3,14.0,6.93
288,Myanaung,24,MM,1544312380,100,18.28,95.32,68.89,2.95
289,Talnakh,76,RU,1544312381,73,69.49,88.39,-2.8,17.6
290,Zasosna,64,RU,1544312383,90,50.63,38.4,24.38,9.44
291,Souillac,90,FR,1544310000,93,45.6,-0.6,55.4,19.46
292,Mezen,92,RU,1544312386,73,65.85,44.24,23.21,9.22
293,Kem,68,UG,1544312387,70,2.68,33.77,70.82,2.17
294,Pali,0,IN,1544312389,78,25.77,73.33,54.04,2.95
295,Leh,76,IN,1544312390,71,34.16,77.58,-9.46,1.16
296,Werda,90,DE,1544311260,80,50.44,12.3,44.6,8.05
297,North Bend,75,US,1544309760,80,43.41,-124.22,55.94,3.36
298,Tuatapere,80,NZ,1544312394,87,-46.13,167.69,61.69,10.45
299,Steinbach,20,CA,1544310000,78,49.53,-96.69,15.8,10.29
300,Sal Rei,40,CV,1544310000,78,16.18,-22.92,75.2,8.05
301,Kalemie,48,CD,1544312398,100,-5.95,29.2,72.62,13.02
302,Qeshm,0,IR,1544310000,63,26.96,56.27,62.6,6.93
303,Brae,68,GB,1544311200,80,60.4,-1.35,41.0,24.16
304,Banda Aceh,32,ID,1544312403,100,5.56,95.32,73.52,2.28
305,Hun,75,BE,1544311260,87,50.34,4.87,50.0,20.8
306,Trapani,0,IT,1544311200,63,38.02,12.54,60.8,12.75
307,Mbeya,36,TZ,1544312407,91,-8.91,33.47,54.76,2.39
308,Port Macquarie,0,AU,1544310000,50,-31.43,152.91,77.0,12.75
309,Mananjary,68,MG,1544312409,93,-19.16,46.8,58.94,3.4
310,Wilmington,1,US,1544310900,93,39.75,-75.55,33.98,7.76
311,Gagino,88,RU,1544312412,92,54.27,39.54,21.86,7.09
312,Olavarria,20,AR,1544312413,36,-36.89,-60.32,77.08,13.47
313,Nkhotakota,36,MW,1544312415,94,-12.93,34.3,73.03,3.06
314,Beringovskiy,12,RU,1544311886,100,63.05,179.32,0.08,20.62
315,Bowen,90,AU,1544310000,94,-20.01,148.25,73.4,12.75
316,Sola,75,NO,1544311200,86,58.89,5.65,44.6,3.36
317,Fairbanks,90,US,1544309880,93,64.84,-147.72,19.04,3.18
318,Laguna,5,MX,1544308980,26,27.52,-110.01,78.8,11.41
319,Oranjemund,0,ZA,1544312423,96,-28.55,16.43,62.41,13.91
320,Nelson Bay,0,AU,1544310000,57,-32.72,152.14,78.8,8.05
321,Nioro,0,GM,1544312425,52,13.79,-15.05,69.16,3.74
322,Carnarvon,0,ZA,1544312427,72,-30.97,22.13,51.16,12.8
323,Ipixuna,40,BR,1544310000,83,-1.76,-48.8,80.6,5.82
324,Viedma,36,AR,1544312429,41,-40.81,-62.99,77.98,15.48
325,Iqaluit,5,CA,1544310000,76,63.75,-68.52,-11.21,4.7
326,Sitrah,0,BH,1544311800,56,26.15,50.62,71.6,5.82
327,Elyria,1,US,1544310900,62,41.37,-82.11,26.06,4.7
328,Klyuchi,0,RU,1544312434,64,52.25,79.17,-13.96,3.4
329,Northam,92,GB,1544309400,81,51.04,-4.21,50.0,25.28
330,Andros Town,75,BS,1544310000,73,24.73,-77.79,75.2,11.41
331,Otradnoye,90,RU,1544310000,86,59.77,30.8,28.4,15.66
332,Russell,0,AR,1544312440,30,-33.01,-68.8,60.65,7.65
333,Constitucion,20,MX,1544308980,20,23.99,-104.67,68.0,12.75
334,Sherbakul,0,RU,1544310000,59,54.63,72.39,-0.41,11.18
335,Bulembu,92,SZ,1544310000,93,-25.95,31.13,64.4,3.36
336,Ridgecrest,1,US,1544309760,47,35.62,-117.67,59.0,1.95
337,Mitsamiouli,32,KM,1544312447,100,-11.38,43.28,80.99,10.0
338,Winslow,20,GB,1544311200,87,51.94,-0.88,48.2,21.92
339,West Bay,0,GB,1544311200,81,50.71,-2.76,46.4,19.46
340,Sinnamary,56,GF,1544312451,92,5.38,-52.96,80.23,11.45
341,Knysna,0,ZA,1544310000,87,-34.04,23.05,57.2,4.7
342,Borda da Mata,0,BR,1544312454,71,-22.27,-46.17,58.18,5.41
343,Nanortalik,48,GL,1544312455,91,60.14,-45.24,26.14,11.79
344,Xiuyan,20,CN,1544312457,54,40.29,123.27,-10.9,1.16
345,Dalbeattie,8,GB,1544312458,100,54.93,-3.83,39.41,8.21
346,Kaitangata,56,NZ,1544312460,65,-46.28,169.85,68.66,18.28
347,Hefei,0,CN,1544310000,63,31.82,117.22,30.2,4.47
348,Nara,75,JP,1544311800,75,34.68,135.8,42.8,21.92
349,Champasak,44,LA,1544312464,85,14.89,105.88,72.49,7.99
350,Harindanga,20,IN,1544310000,82,22.04,88.32,59.0,2.73
351,Ayan,32,TR,1544312467,71,40.67,33.6,14.84,1.72
352,Rochegda,76,RU,1544312468,75,62.67,43.41,21.19,7.54
353,Hailey,90,US,1544309220,86,43.52,-114.32,28.4,6.93
354,Dicabisagan,92,PH,1544312471,100,17.08,122.42,74.24,6.76
355,Mindelo,24,PT,1544310000,100,41.31,-8.72,46.4,3.36
356,Angoram,8,PG,1544312473,77,-4.06,144.07,84.91,2.95
357,Luderitz,0,NA,1544312475,78,-26.65,15.16,58.36,20.51
358,Ulaanbaatar,36,MN,1544310000,74,47.92,106.92,-27.41,2.39
359,Dalby,75,AU,1544310000,57,-27.18,151.26,75.2,19.46
360,Omboue,80,GA,1544312479,100,-1.57,9.26,78.43,3.85
361,Mikkeli,90,FI,1544311200,91,61.69,27.27,32.0,9.17
362,Honiara,32,SB,1544312482,78,-9.43,159.96,84.77,2.51
363,Borba,44,PT,1544312483,97,38.81,-7.46,39.77,2.84
364,Ulaangom,0,MN,1544312484,0,49.98,92.07,-33.22,2.28
365,Zhigansk,56,RU,1544312486,67,66.77,123.37,-35.29,4.74
366,Kualakapuas,88,ID,1544312487,99,-3.01,114.39,75.73,3.62
367,Lavrentiya,36,RU,1544312488,100,65.58,-170.99,19.79,30.8
368,Inongo,92,CD,1544312490,100,-1.93,18.29,71.14,1.39
369,Klaksvik,44,FO,1544311200,74,62.23,-6.59,37.4,13.87
370,Mehran,56,IR,1544312492,92,33.12,46.17,49.04,5.64
371,Sorland,12,NO,1544312494,100,67.67,12.69,39.64,26.33
372,Suba,80,CN,1544312495,99,28.73,103.51,30.77,0.94
373,Marystown,92,CA,1544312496,100,47.17,-55.16,30.14,16.93
374,Bay Roberts,90,CA,1544310000,100,47.58,-53.28,28.4,16.11
375,Bonthe,0,SL,1544312499,76,7.53,-12.5,80.54,5.19
376,Iraan,90,US,1544310900,80,30.91,-101.9,41.0,11.41
377,Zhuanghe,8,CN,1544312502,100,39.7,122.97,15.16,4.29
378,Bundaberg,75,AU,1544310000,78,-24.87,152.35,75.2,17.22
379,Keuruu,90,FI,1544311200,100,62.26,24.71,33.8,10.29
380,Saint-Leu,0,RE,1544310000,53,-21.15,55.28,78.8,6.93
381,Gizo,40,IL,1544311200,82,31.8,34.94,57.2,6.93
382,Pasinler,75,TR,1544311200,100,39.98,41.67,28.4,2.24
383,Lagoa,0,PT,1544310000,87,37.14,-8.45,51.8,6.93
384,Komsomolskiy,48,RU,1544312512,83,67.55,63.78,14.39,10.22
385,San Cristobal,75,EC,1544310000,82,-0.39,-78.55,59.0,9.17
386,Katsuura,75,JP,1544310000,64,33.93,134.5,37.4,13.87
387,Helena,1,US,1544309580,51,46.59,-112.04,33.98,5.97
388,Zhezkazgan,32,KZ,1544312517,74,47.8,67.71,5.21,10.78
389,Neresnytsya,92,UA,1544310000,100,48.12,23.77,33.8,5.82
390,Sabang,88,PH,1544312521,100,13.72,123.58,78.65,10.78
391,Estelle,90,US,1544312100,100,32.87,-97.01,41.36,8.05
392,Yar-Sale,80,RU,1544312523,88,66.83,70.83,15.11,5.75
393,Waipawa,8,NZ,1544312525,54,-39.94,176.59,74.83,4.18
394,Moorhead,1,US,1544310900,73,46.87,-96.75,26.06,18.34
395,San Pedro,56,AR,1544312478,44,-33.68,-59.66,70.73,8.99
396,Kenai,75,US,1544311800,86,60.55,-151.26,32.0,5.82
397,Windsor,1,US,1544310900,65,42.3,-83.03,27.86,6.08
398,Ebeltoft,92,DK,1544311200,93,56.2,10.68,44.6,12.75
399,Phangnga,20,TH,1544310000,83,8.45,98.53,77.0,2.62
400,Tautira,40,PF,1544311800,66,-17.73,-149.15,87.8,14.99
401,Methoni,88,GR,1544312537,100,36.82,21.7,61.51,21.07
402,Nata,40,CY,1544310000,87,34.78,32.57,53.6,6.93
403,Mangochi,64,MW,1544312540,78,-14.48,35.26,71.41,3.96
404,Muncar,92,ID,1544312541,100,-8.43,114.34,77.89,1.5
405,Osorno,36,CL,1544312543,72,-40.57,-73.14,57.59,7.76
406,Beloha,0,MG,1544312544,92,-25.17,45.06,70.78,4.97
407,Nemuro,20,JP,1544311800,85,43.32,145.57,12.2,5.82
408,Maldonado,0,UY,1544310000,72,-34.91,-54.96,64.4,9.17
409,Svrljig,90,RS,1544310000,100,43.41,22.12,37.4,2.24
410,Kimbe,68,PG,1544312551,100,-5.56,150.15,81.98,5.86
411,College,75,US,1544311020,88,64.86,-147.8,19.94,3.18
412,Kahului,40,US,1544309760,64,20.89,-156.47,82.04,24.16
413,Broome,64,GB,1544311200,76,52.47,1.45,48.2,19.46
414,Nagornskiy,92,RU,1544312556,92,58.77,57.55,19.7,4.29
415,Rawson,100,AR,1544312510,24,-43.3,-65.11,82.25,20.07
416,Navoi,0,IT,1544311200,100,46.17,11.83,41.0,2.24
417,Honningsvag,0,NO,1544312560,100,70.98,25.97,18.8,7.31
418,Richards Bay,92,ZA,1544312561,100,-28.77,32.06,68.26,10.0
419,Olga,1,US,1544309880,39,34.11,-118.17,71.96,0.83
420,Novopetrovskoye,90,RU,1544310000,85,55.99,36.47,24.8,11.18
421,Guerande,92,FR,1544310000,76,48.47,-4.17,53.6,25.28
422,Arroio Grande,0,BR,1544312567,76,-32.24,-53.09,66.95,16.49
423,Jaguaruna,0,BR,1544312568,96,-28.62,-49.03,65.15,10.78
424,Parrita,20,CR,1544310000,68,9.52,-84.33,73.4,9.17
425,Saint-Nazaire,75,FR,1544310000,82,47.27,-2.21,55.4,27.51
426,Geraldton,40,CA,1544310000,78,49.72,-86.95,15.8,12.75
427,Khartoum,0,SD,1544310000,28,15.59,32.54,69.8,8.05
428,Tual,56,ID,1544312575,100,-5.67,132.75,85.31,11.34
429,Evinayong,88,GQ,1544312576,99,1.44,10.55,67.49,0.83
430,Ust-Kulom,36,RU,1544312578,84,61.69,53.69,15.74,3.4
431,Egvekinot,24,RU,1544312579,67,66.32,-179.17,-1.95,10.33
432,Vestmannaeyjar,88,IS,1544312580,100,63.44,-20.27,33.88,6.76
433,Fortuna,20,ES,1544310000,87,38.18,-1.13,51.8,5.82
434,Abha,0,SA,1544310000,76,18.22,42.5,55.4,1.72
435,Langarud,75,IR,1544310000,93,37.2,50.15,53.6,8.99
436,Bamnet Narong,68,TH,1544312586,84,15.5,101.69,70.91,11.23
437,Mahebourg,40,MU,1544310000,88,-20.41,57.7,77.0,6.93
438,Sendreni,92,RO,1544312589,100,45.4,27.92,34.91,7.43
439,Arlit,0,NE,1544312590,52,18.74,7.39,54.89,7.99
440,Usolye-Sibirskoye,64,RU,1544312592,83,52.75,103.66,-19.72,4.41
441,Mildura,20,AU,1544310000,50,-34.18,142.16,78.8,9.17
442,Sena Madureira,56,BR,1544312594,98,-9.07,-68.66,73.93,2.06
443,Ondangwa,0,NA,1544310000,23,-17.91,15.98,77.0,3.36
444,Impfondo,76,CD,1544312597,97,1.62,18.06,72.08,2.95
445,Milkovo,75,BG,1544310000,100,41.53,24.68,30.2,1.95
446,Igarka,88,RU,1544312600,80,67.47,86.57,-1.09,21.07
447,Evans,1,US,1544312160,45,40.38,-104.69,46.4,6.93
448,Gat,32,SN,1544310000,60,14.69,-16.54,75.2,11.41
449,Kyaikkami,100,MM,1544312604,95,16.08,97.57,72.49,2.95
450,Santa Maria,0,BR,1544312435,49,-29.69,-53.81,63.53,7.76
451,Baracoa,92,CU,1544312608,100,20.35,-74.5,78.92,13.69
452,Svetlogorsk,20,RU,1544310000,77,53.14,59.15,5.0,2.95
453,Pirgos,20,GR,1544309400,87,35.12,25.72,51.8,12.75
454,Gobabis,0,NA,1544312612,25,-22.45,18.97,60.61,13.24
455,Mandalgovi,0,MN,1544312613,58,45.76,106.27,-23.14,4.97
456,Wawa,0,NG,1544312615,53,9.9,4.41,69.43,4.74
457,Oswego,1,US,1544312100,50,37.17,-95.11,37.94,5.82
458,Taman,8,RU,1544310000,100,45.22,36.72,37.4,6.71
459,Adrar,0,DZ,1544310000,44,27.87,-0.29,57.2,11.41
460,Dunedin,64,NZ,1544312621,73,-45.87,170.5,70.28,3.29
461,Saint-Augustin,90,FR,1544310000,93,44.83,-0.61,57.2,16.11
462,Havre-Saint-Pierre,75,CA,1544310000,77,50.23,-63.6,6.8,5.82
463,Itaqui,0,BR,1544312625,44,-29.13,-56.55,70.96,9.33
464,Riyadh,0,SA,1544310000,51,24.63,46.72,62.6,8.05
465,Zaigrayevo,48,RU,1544310000,63,51.83,108.27,-11.21,4.47
466,Fuerte,32,PH,1544312629,78,17.54,120.36,72.8,3.96
467,Chabahar,0,IR,1544312630,99,25.29,60.65,75.86,14.47
468,Balkhash,48,KZ,1544312632,100,46.84,74.98,12.59,15.82
469,San Matias,75,HN,1544310000,53,13.97,-86.63,75.2,2.24
470,Pisco,75,PE,1544310000,30,-13.71,-76.2,71.6,18.34
471,Maceio,20,BR,1544312434,81,-9.67,-35.74,78.34,10.45
472,Port Keats,0,AU,1544312637,93,-14.25,129.55,87.38,6.76
473,Pemba,64,MZ,1544312639,95,-12.97,40.52,84.91,10.45
474,Ciudad Bolivar,48,VE,1544312640,63,8.12,-63.55,81.17,11.23
475,Seoul,1,KR,1544311800,65,37.57,126.98,17.6,1.12
476,Rawatbhata,0,IN,1544312643,84,24.93,75.59,49.58,2.84
477,Los Llanos de Aridane,0,ES,1544310000,72,28.66,-17.92,66.2,8.05
478,Kailua,90,US,1544312280,73,21.39,-157.74,78.08,19.46
479,Portland,75,US,1544310480,64,45.52,-122.67,44.96,12.75
480,Deception Bay,75,AU,1544310000,65,-27.19,153.02,78.8,11.41
481,Castelldefels,0,ES,1544310000,81,41.29,1.98,51.8,6.93
482,Abrau-Dyurso,48,RU,1544310000,100,44.7,37.6,37.4,6.71
483,Codrington,90,AU,1544310000,69,-28.95,153.24,78.8,6.93
484,Natitingou,0,BJ,1544312653,38,10.31,1.38,67.58,6.53
485,Lodja,92,CD,1544312655,100,-3.52,23.6,69.43,2.62
486,Naron,90,ES,1544310000,87,43.52,-8.15,55.4,11.41
487,Pathein,12,MM,1544312485,97,16.78,94.73,72.04,3.06
488,Uttarkashi,0,IN,1544312659,64,30.73,78.44,32.53,2.84
489,Joniskis,90,LT,1544311200,93,56.24,23.62,37.4,14.99
490,Ayr,40,GB,1544311200,100,55.46,-4.63,42.8,8.99
491,Nizhnevartovsk,0,RU,1544310000,91,60.93,76.58,3.2,4.47
492,Sumbe,88,AO,1544312664,100,-11.2,13.84,74.56,1.28
493,Sayyan,0,YE,1544312666,71,15.17,44.32,42.92,0.83
494,Nyurba,32,RU,1544312667,63,63.29,118.35,-21.57,4.41
495,Uthal,0,PK,1544312669,82,25.81,66.62,55.79,2.39
496,Ferrol,90,ES,1544310000,87,43.48,-8.23,55.4,11.41
497,Yulara,32,AU,1544310000,23,-25.24,130.99,93.2,8.05
498,Ellensburg,90,US,1544311140,63,47.0,-120.55,32.0,4.7
499,Moron,44,VE,1544312674,80,10.49,-68.2,72.08,2.95
500,Paamiut,24,GL,1544312675,100,61.99,-49.67,27.98,16.49
501,Lithakia,92,GR,1544309400,77,37.72,20.83,59.0,8.05
502,Pokrovsk,32,UA,1544312678,94,48.28,37.18,23.53,10.78
503,Ojinaga,1,US,1544310900,55,29.56,-104.41,57.74,10.29
504,Bucerias,5,MX,1544308980,74,20.76,-105.33,82.4,5.82
505,Itarema,20,BR,1544312682,91,-2.92,-39.92,76.18,6.2
506,Kathu,0,ZA,1544312683,23,-27.7,23.05,57.91,9.66
507,Benalla,40,AU,1544310000,68,-36.55,145.99,71.6,10.29
508,Izmaylovo,92,RU,1544312686,92,53.72,47.24,21.73,3.85
509,Cuamba,64,MZ,1544312688,87,-14.8,36.54,70.1,2.62
510,Berlevag,0,NO,1544312689,100,70.86,29.09,6.74,4.74
511,Sistranda,75,NO,1544309400,100,63.73,8.83,33.8,9.17
512,Tacuati,0,PY,1544312692,62,-23.46,-56.74,71.9,3.51
513,Kieta,32,PG,1544312694,92,-6.22,155.63,84.73,4.41
514,Sterling,1,US,1544311320,62,39.0,-77.4,33.98,5.86
515,Enshi,92,CN,1544312696,84,30.29,109.48,25.1,3.62
516,Governador Valadares,92,BR,1544312422,93,-18.85,-41.95,65.78,8.55
517,Lata,0,IN,1544312699,64,30.78,78.62,32.53,2.84
518,Santa Fe,0,AR,1544312701,43,-31.62,-60.7,72.26,10.78
519,Lishui,92,CN,1544312702,98,28.45,119.91,30.05,2.62
520,Goderich,48,CA,1544312704,92,43.74,-81.71,30.14,13.02
521,Port Hawkesbury,90,CA,1544310000,79,45.62,-61.36,19.4,16.11
522,Luancheng,56,CN,1544310000,67,37.88,114.65,19.4,2.24
523,Zafra,0,ES,1544312708,82,38.43,-6.42,33.83,3.4
524,Marsh Harbour,80,BS,1544312710,100,26.54,-77.06,75.32,14.58
525,Iranshahr,0,IR,1544312711,83,27.21,60.69,41.71,2.39
526,Ondjiva,0,AO,1544312712,28,-17.07,15.73,69.83,12.24
527,Daru,0,SL,1544312713,71,7.99,-10.85,72.98,3.18
528,Walla Walla,90,US,1544311860,74,46.06,-118.33,33.98,4.7
529,Peru,90,US,1544310900,72,41.33,-89.13,27.5,6.93
530,Longyearbyen,75,NO,1544309400,58,78.22,15.63,26.6,11.41
531,Acapulco,5,MX,1544308920,74,16.86,-99.88,84.2,5.82
532,Coihueco,75,CL,1544310000,59,-36.63,-71.83,66.2,10.29
533,Uyemskiy,75,RU,1544311800,85,64.47,40.85,21.2,13.42
534,Miri,0,NG,1544312723,59,10.31,9.75,59.75,3.74
535,Godhra,0,IN,1544310000,77,22.78,73.62,62.6,3.36
536,Hornepayne,8,CA,1544312726,86,49.22,-84.78,17.36,10.22
537,Ostrovnoy,76,RU,1544312727,95,68.05,39.51,23.57,11.12
538,Parana,76,BR,1544312728,96,-7.52,-72.89,72.89,2.84
539,Chicama,20,PE,1544310000,83,-7.84,-79.15,69.8,6.93
540,Mattru,0,SL,1544312731,74,7.62,-11.83,75.46,4.41
541,Lukovetskiy,75,RU,1544311800,85,64.29,41.92,21.2,13.42
542,Verkhoyansk,44,RU,1544312734,82,67.55,133.39,-39.57,2.06
543,Gazanjyk,88,TM,1544312736,99,39.24,55.52,44.41,3.96
544,Auxerre,76,FR,1544310000,81,47.8,3.58,53.6,28.86
545,Bagdarin,0,RU,1544312738,41,54.44,113.59,-29.22,3.96
546,Matagami,8,NG,1544312740,68,9.67,8.4,65.29,4.63
547,Alyangula,0,AU,1544310000,66,-13.85,136.42,87.8,9.17
